{
  "city": "ichihara",
  "label": "市原市",
  "center": [35.40, 140.12],
  "bounds": [[35.23, 139.95], [35.58, 140.27]],
  "boundaryFile": "ichihara-boundary.geojson",
  "stations": [
    {"no":1,"name":"椎津会館","address":"市原市椎津230番地","lat":35.4727591,"lng":140.0353002,"voting_area":null,"accessibility":null,"type":"polling"},
    {"no":2,"name":"上町中央公民館","address":"市原市姉崎東2丁目2番地13","lat":35.4762475,"lng":140.0420835,"voting_area":null,"accessibility":null,"type":"polling"},
    {"no":3,"name":"姉崎公民館体育室","address":"市原市姉崎2150番地1","lat":35.4715358,"lng":140.0447228,"voting_area":null,"accessibility":null,"type":"polling"},
    {"no":4,"name":"富士見自治会館","address":"市原市姉崎899番地","lat":35.484414,"lng":140.044409,"voting_area":null,"accessibility":null,"type":"polling"},
    {"no":5,"name":"千種コミュニティセンター","address":"市原市千種2丁目1番地2","lat":35.4938049,"lng":140.0583511,"voting_area":null,"accessibility":null,"type":"polling"},
    {"no":6,"name":"明神小学校体育館","address":"市原市姉崎1850番地","lat":35.4793818,"lng":140.05068,"voting_area":null,"accessibility":null,"type":"polling"},
    {"no":7,"name":"青葉台小学校体育館","address":"市原市青葉台1丁目10番地1","lat":35.4711339,"lng":140.0606632,"voting_area":null,"accessibility":null,"type":"polling"},
    {"no":8,"name":"有秋東小学校体育館","address":"市原市不入斗753番地","lat":35.4540937,"lng":140.057938,"voting_area":null,"accessibility":null,"type":"polling"},
    {"no":9,"name":"有秋公民館体育室","address":"市原市有秋台西1丁目3番地2","lat":35.4534644,"lng":140.0502401,"voting_area":null,"accessibility":null,"type":"polling"},
    {"no":10,"name":"有秋南小学校体育館","address":"市原市桜台3丁目1番地1","lat":35.4430855,"lng":140.0511038,"voting_area":null,"accessibility":null,"type":"polling"},
    {"no":11,"name":"市原青少年会館","address":"市原市八幡1126番地1","lat":35.5385123,"lng":140.1157182,"voting_area":null,"accessibility":null,"type":"polling"},
    {"no":12,"name":"八幡小学校体育館","address":"市原市八幡530番地","lat":35.5341601,"lng":140.1218551,"voting_area":null,"accessibility":null,"type":"polling"},
    {"no":13,"name":"石塚小学校体育館","address":"市原市八幡石塚2丁目4番地","lat":35.5449572,"lng":140.1306581,"voting_area":null,"accessibility":null,"type":"polling"},
    {"no":14,"name":"五所町民館","address":"市原市五所1611番地","lat":35.5302464,"lng":140.1103752,"voting_area":null,"accessibility":null,"type":"polling"},
    {"no":15,"name":"白金小学校体育館","address":"市原市君塚3丁目19番地","lat":35.5236038,"lng":140.1073336,"voting_area":null,"accessibility":null,"type":"polling"},
    {"no":16,"name":"若宮小学校体育館","address":"市原市若宮3丁目13番地","lat":35.5273017,"lng":140.1345419,"voting_area":null,"accessibility":null,"type":"polling"},
    {"no":17,"name":"山木会館","address":"市原市能満326番地2","lat":35.5211982,"lng":140.1366367,"voting_area":null,"accessibility":null,"type":"polling"},
    {"no":18,"name":"菊間小学校体育館","address":"市原市菊間1620番地1","lat":35.537338,"lng":140.1505655,"voting_area":null,"accessibility":null,"type":"polling"},
    {"no":19,"name":"菊間中学校柔剣道場","address":"市原市菊間1850番地","lat":35.5349109,"lng":140.1462632,"voting_area":null,"accessibility":null,"type":"polling"},
    {"no":20,"name":"草刈公民館","address":"市原市草刈964番地","lat":35.5317154,"lng":140.1643842,"voting_area":null,"accessibility":null,"type":"polling"},
    {"no":21,"name":"市原小学校体育館","address":"市原市能満1320番地","lat":35.5088368,"lng":140.127713,"voting_area":null,"accessibility":null,"type":"polling"},
    {"no":22,"name":"旧玉泉幼稚園","address":"市原市門前2丁目220番地","lat":35.5167337,"lng":140.1268279,"voting_area":null,"accessibility":null,"type":"polling"},
    {"no":23,"name":"能満公民館","address":"市原市能満666番地","lat":35.5127559,"lng":140.13374,"voting_area":null,"accessibility":null,"type":"polling"},
    {"no":24,"name":"能満分区公民館","address":"市原市能満2116番地95","lat":35.4965259,"lng":140.1457697,"voting_area":null,"accessibility":null,"type":"polling"},
    {"no":25,"name":"辰巳台中学校体育館","address":"市原市辰巳台東2丁目2番地","lat":35.521137,"lng":140.1540577,"voting_area":null,"accessibility":null,"type":"polling"},
    {"no":26,"name":"辰巳台東小学校体育館","address":"市原市辰巳台東4丁目13番地","lat":35.5136663,"lng":140.1530492,"voting_area":null,"accessibility":null,"type":"polling"},
    {"no":27,"name":"辰巳台西小学校体育館","address":"市原市辰巳台西4丁目16番地","lat":35.5239051,"lng":140.1483607,"voting_area":null,"accessibility":null,"type":"polling"},
    {"no":28,"name":"五井会館ロビー","address":"市原市五井中央西2丁目3番地13","lat":35.5145003,"lng":140.0901702,"voting_area":null,"accessibility":null,"type":"polling"},
    {"no":29,"name":"五井小学校体育館","address":"市原市五井東1丁目6番地3","lat":35.5148671,"lng":140.0945878,"voting_area":null,"accessibility":null,"type":"polling"},
    {"no":30,"name":"若葉中学校柔剣道場","address":"市原市五井5308番地","lat":35.5228442,"lng":140.0868737,"voting_area":null,"accessibility":null,"type":"polling"},
    {"no":31,"name":"五井中学校柔剣道場","address":"市原市五井922番地2","lat":35.5092778,"lng":140.0792938,"voting_area":null,"accessibility":null,"type":"polling"},
    {"no":32,"name":"京葉小学校体育館","address":"市原市五井西3丁目9番地2","lat":35.5194473,"lng":140.0739508,"voting_area":null,"accessibility":null,"type":"polling"},
    {"no":33,"name":"村上やすらぎ会館","address":"市原市村上1420番地1","lat":35.4942395,"lng":140.0982651,"voting_area":null,"accessibility":null,"type":"polling"},
    {"no":34,"name":"君塚自治会館","address":"市原市君塚1丁目29番地2","lat":35.5208249,"lng":140.1027846,"voting_area":null,"accessibility":null,"type":"polling"},
    {"no":35,"name":"白金町町会会館","address":"市原市白金町4丁目24番地","lat":35.527472,"lng":140.1021999,"voting_area":null,"accessibility":null,"type":"polling"},
    {"no":36,"name":"上郷公民館","address":"市原市海保691番地","lat":35.472355,"lng":140.0794896,"voting_area":null,"accessibility":null,"type":"polling"},
    {"no":37,"name":"東海小学校体育館","address":"市原市廿五里558番地","lat":35.4881465,"lng":140.0772687,"voting_area":null,"accessibility":null,"type":"polling"},
    {"no":38,"name":"谷島野公民館","address":"市原市島野1950番地","lat":35.5018343,"lng":140.0713223,"voting_area":null,"accessibility":null,"type":"polling"},
    {"no":39,"name":"千種中学校体育館","address":"市原市千種6丁目1番地1","lat":35.4964123,"lng":140.058968,"voting_area":null,"accessibility":null,"type":"polling"},
    {"no":40,"name":"国分寺台西小学校体育館","address":"市原市西国分寺台2丁目11番地1","lat":35.5049459,"lng":140.1133954,"voting_area":null,"accessibility":null,"type":"polling"},
    {"no":41,"name":"国分寺台西中学校柔剣道場","address":"市原市国分寺台中央5丁目1番地1","lat":35.5030855,"lng":140.1172685,"voting_area":null,"accessibility":null,"type":"polling"},
    {"no":42,"name":"国分寺台東小学校体育館","address":"市原市東国分寺台5丁目1番地","lat":35.4962376,"lng":140.1201868,"voting_area":null,"accessibility":null,"type":"polling"},
    {"no":43,"name":"国分寺台中学校柔剣道場","address":"市原市南国分寺台2丁目1番地","lat":35.4928047,"lng":140.1129019,"voting_area":null,"accessibility":null,"type":"polling"},
    {"no":45,"name":"東海中学校柔剣道場","address":"市原市今富477番地","lat":35.4818019,"lng":140.0911867,"voting_area":null,"accessibility":null,"type":"polling"},
    {"no":46,"name":"海士公民館","address":"市原市海士有木1737番地","lat":35.4782417,"lng":140.1237997,"voting_area":null,"accessibility":null,"type":"polling"},
    {"no":47,"name":"三和コミュニティセンター","address":"市原市海士有木235番地","lat":35.4647858,"lng":140.1250362,"voting_area":null,"accessibility":null,"type":"polling"},
    {"no":48,"name":"養老小学校体育館","address":"市原市松崎820番地","lat":35.4482861,"lng":140.1342523,"voting_area":null,"accessibility":null,"type":"polling"},
    {"no":49,"name":"新堀公民館","address":"市原市新堀214番地2","lat":35.463226,"lng":140.1383695,"voting_area":null,"accessibility":null,"type":"polling"},
    {"no":50,"name":"川在農村協同館","address":"市原市川在490番地","lat":35.4348732,"lng":140.161879,"voting_area":null,"accessibility":null,"type":"polling"},
    {"no":51,"name":"海上小学校体育館","address":"市原市神代125番地","lat":35.4705966,"lng":140.0990134,"voting_area":null,"accessibility":null,"type":"polling"},
    {"no":52,"name":"光風台小学校体育館","address":"市原市光風台4丁目546番地","lat":35.4462977,"lng":140.0985145,"voting_area":null,"accessibility":null,"type":"polling"},
    {"no":53,"name":"双葉中学校体育館","address":"市原市光風台1丁目475番地","lat":35.4454805,"lng":140.113964,"voting_area":null,"accessibility":null,"type":"polling"},
    {"no":54,"name":"金剛地ふれあい館","address":"市原市金剛地848番地1","lat":35.4956306,"lng":140.2431419,"voting_area":null,"accessibility":null,"type":"polling"},
    {"no":55,"name":"東国吉公民館","address":"市原市東国吉693番地","lat":35.5069372,"lng":140.2151638,"voting_area":null,"accessibility":null,"type":"polling"},
    {"no":56,"name":"瀬又公民館","address":"市原市瀬又134番地1","lat":35.5300259,"lng":140.2068704,"voting_area":null,"accessibility":null,"type":"polling"},
    {"no":57,"name":"グリーンヒルセンター","address":"市原市押沼934番地","lat":35.5428402,"lng":140.2069804,"voting_area":null,"accessibility":null,"type":"polling"},
    {"no":58,"name":"番場公民館","address":"市原市番場131番地","lat":35.5222766,"lng":140.1904204,"voting_area":null,"accessibility":null,"type":"polling"},
    {"no":59,"name":"潤井戸新田青年館","address":"市原市潤井戸998番地1","lat":35.5172249,"lng":140.1726427,"voting_area":null,"accessibility":null,"type":"polling"},
    {"no":60,"name":"湿津小学校","address":"市原市潤井戸2299番地14","lat":35.4984039,"lng":140.1801395,"voting_area":null,"accessibility":null,"type":"polling"},
    {"no":61,"name":"小田部公民館","address":"市原市小田部352番地","lat":35.4923811,"lng":140.1539075,"voting_area":null,"accessibility":null,"type":"polling"},
    {"no":62,"name":"水の江小学校体育館","address":"市原市ちはら台東2丁目15番地","lat":35.5340422,"lng":140.1919037,"voting_area":null,"accessibility":null,"type":"polling"},
    {"no":63,"name":"清水谷小学校体育館","address":"市原市ちはら台南5丁目2番地","lat":35.5273017,"lng":140.185697,"voting_area":null,"accessibility":null,"type":"polling"},
    {"no":64,"name":"牧園小学校体育館","address":"市原市ちはら台南2丁目7番地","lat":35.5259134,"lng":140.1761859,"voting_area":null,"accessibility":null,"type":"polling"},
    {"no":65,"name":"ちはら台桜小学校体育館","address":"市原市ちはら台東5丁目13番地","lat":35.5387,"lng":140.1948219,"voting_area":null,"accessibility":null,"type":"polling"},
    {"no":66,"name":"宿滝町会集会場","address":"市原市平蔵2204番地","lat":35.3478847,"lng":140.1999691,"voting_area":null,"accessibility":null,"type":"polling"},
    {"no":67,"name":"根古屋農村協同館","address":"市原市平蔵619番地","lat":35.3347636,"lng":140.2071627,"voting_area":null,"accessibility":null,"type":"polling"},
    {"no":68,"name":"上畑公民館","address":"市原市米原347番地","lat":35.3244023,"lng":140.212908,"voting_area":null,"accessibility":null,"type":"polling"},
    {"no":69,"name":"小草畑公民館","address":"市原市小草畑61番地","lat":35.3194607,"lng":140.1896667,"voting_area":null,"accessibility":null,"type":"polling"},
    {"no":70,"name":"上田尾公民館","address":"市原市田尾125番地","lat":35.3618479,"lng":140.1860994,"voting_area":null,"accessibility":null,"type":"polling"},
    {"no":71,"name":"鶴舞公民館","address":"市原市鶴舞624番地","lat":35.3817768,"lng":140.1833903,"voting_area":null,"accessibility":null,"type":"polling"},
    {"no":72,"name":"鶴舞土地改良区事務所","address":"市原市池和田1314番地","lat":35.3820983,"lng":140.1638773,"voting_area":null,"accessibility":null,"type":"polling"},
    {"no":73,"name":"奥野下公民館","address":"市原市奥野270番地","lat":35.3978922,"lng":140.1889076,"voting_area":null,"accessibility":null,"type":"polling"},
    {"no":74,"name":"旧内田小学校体育館","address":"市原市島田20番地","lat":35.4047179,"lng":140.1745176,"voting_area":null,"accessibility":null,"type":"polling"},
    {"no":75,"name":"米沢大西公民館","address":"市原市米沢713番地","lat":35.399685,"lng":140.1502892,"voting_area":null,"accessibility":null,"type":"polling"},
    {"no":76,"name":"南総支所会議室","address":"市原市牛久500番地","lat":35.4009772,"lng":140.134719,"voting_area":null,"accessibility":null,"type":"polling"},
    {"no":77,"name":"戸田小学校体育館","address":"市原市馬立830番地","lat":35.4244329,"lng":140.1162305,"voting_area":null,"accessibility":null,"type":"polling"},
    {"no":78,"name":"旧寺谷小学校体育館","address":"市原市寺谷687番地1","lat":35.4079927,"lng":140.1050108,"voting_area":null,"accessibility":null,"type":"polling"},
    {"no":79,"name":"藪岩青年館","address":"市原市岩26番地1","lat":35.3796818,"lng":140.1488488,"voting_area":null,"accessibility":null,"type":"polling"},
    {"no":80,"name":"牛久小学校体育館","address":"市原市皆吉933番地2","lat":35.395028,"lng":140.1380074,"voting_area":null,"accessibility":null,"type":"polling"},
    {"no":81,"name":"西国吉自治会館","address":"市原市西国吉426番地8","lat":35.3935412,"lng":140.1206535,"voting_area":null,"accessibility":null,"type":"polling"},
    {"no":82,"name":"奉免自治会館","address":"市原市奉免1233番地","lat":35.4102291,"lng":140.1439592,"voting_area":null,"accessibility":null,"type":"polling"},
    {"no":83,"name":"北久保会館","address":"市原市久保466番地","lat":35.3711962,"lng":140.1544761,"voting_area":null,"accessibility":null,"type":"polling"},
    {"no":84,"name":"加茂公民館","address":"市原市養老949番地1","lat":35.3547561,"lng":140.1520407,"voting_area":null,"accessibility":null,"type":"polling"},
    {"no":85,"name":"下古敷谷自治会館","address":"市原市古敷谷375番地1","lat":35.337081,"lng":140.172239,"voting_area":null,"accessibility":null,"type":"polling"},
    {"no":86,"name":"新井青年館","address":"市原市新井150番地","lat":35.3475018,"lng":140.1860028,"voting_area":null,"accessibility":null,"type":"polling"},
    {"no":87,"name":"月崎公民館","address":"市原市月崎385番地","lat":35.3038835,"lng":140.1447021,"voting_area":null,"accessibility":null,"type":"polling"},
    {"no":88,"name":"白鳥公民館","address":"市原市大久保505番地","lat":35.2840142,"lng":140.1468211,"voting_area":null,"accessibility":null,"type":"polling"},
    {"no":89,"name":"朝生原青年館","address":"市原市朝生原502番地","lat":35.2647948,"lng":140.1640301,"voting_area":null,"accessibility":null,"type":"polling"},
    {"no":90,"name":"石塚公民館","address":"市原市石塚224番地","lat":35.268014,"lng":140.1202753,"voting_area":null,"accessibility":null,"type":"polling"},
    {"no":91,"name":"月出自治会館","address":"市原市月出1060番地1","lat":35.2934415,"lng":140.1827225,"voting_area":null,"accessibility":null,"type":"polling"},
    {"no":92,"name":"田淵会館","address":"市原市田淵","lat":35.2971522,"lng":140.1498252,"voting_area":null,"accessibility":null,"type":"polling"},
    {"no":93,"name":"徳氏会館","address":"市原市徳氏275番地1","lat":35.317323,"lng":140.15185,"voting_area":null,"accessibility":null,"type":"polling"},
    {"no":94,"name":"万田野自治会館","address":"市原市万田野85番地","lat":35.3211546,"lng":140.1153345,"voting_area":null,"accessibility":null,"type":"polling"},
    {"no":95,"name":"加茂支所","address":"市原市平野583番地3","lat":35.3354201,"lng":140.1481595,"voting_area":null,"accessibility":null,"type":"polling"},
    {"no":1,"name":"市役所第1庁舎1階 市民プラザ","address":"市原市国分寺台中央1丁目1番地1","lat":35.4979145,"lng":140.1155526,"voting_area":null,"accessibility":null,"type":"early"},
    {"no":2,"name":"姉崎保健福祉センター 2階展示ホール","address":"市原市椎津1131番地1","lat":35.4735,"lng":140.036,"voting_area":null,"accessibility":null,"type":"early"},
    {"no":3,"name":"五井会館 ロビー","address":"市原市五井中央西2丁目3番地13","lat":35.5145003,"lng":140.0901702,"voting_area":null,"accessibility":null,"type":"early"},
    {"no":4,"name":"アリオ市原 1階従業員会議室","address":"市原市更科4丁目3番地2","lat":35.5082618,"lng":140.1013226,"voting_area":null,"accessibility":null,"type":"early"},
    {"no":5,"name":"市原青少年会館 集会室","address":"市原市八幡1126番地1","lat":35.5385123,"lng":140.1157182,"voting_area":null,"accessibility":null,"type":"early"},
    {"no":6,"name":"市津支所 会議室","address":"市原市下野90番地1","lat":35.495,"lng":140.178,"voting_area":null,"accessibility":null,"type":"early"},
    {"no":7,"name":"南総支所 会議室","address":"市原市牛久500番地","lat":35.4009772,"lng":140.134719,"voting_area":null,"accessibility":null,"type":"early"},
    {"no":8,"name":"加茂支所 会議室","address":"市原市平野583番地3","lat":35.3354201,"lng":140.1481595,"voting_area":null,"accessibility":null,"type":"early"},
    {"no":1,"name":"姉崎駅前交差点付近","address":"市原市姉崎駅前1丁目","lat":35.472,"lng":140.067,"voting_area":null,"accessibility":null,"type":"poster"},
    {"no":2,"name":"五井駅東口ロータリー","address":"市原市五井中央東1丁目","lat":35.523,"lng":140.108,"voting_area":null,"accessibility":null,"type":"poster"},
    {"no":3,"name":"国分寺台中央公園前","address":"市原市国分寺台中央2丁目","lat":35.4975,"lng":140.119,"voting_area":null,"accessibility":null,"type":"poster"},
    {"no":4,"name":"有秋台バス停前","address":"市原市有秋台西2丁目","lat":35.4555,"lng":140.064,"voting_area":null,"accessibility":null,"type":"poster"},
    {"no":5,"name":"辰巳台商店街入口","address":"市原市辰巳台東3丁目","lat":35.513,"lng":140.131,"voting_area":null,"accessibility":null,"type":"poster"},
    {"no":6,"name":"八幡宿駅前","address":"市原市八幡海岸通","lat":35.531,"lng":140.116,"voting_area":null,"accessibility":null,"type":"poster"},
    {"no":7,"name":"市津緑地公園入口","address":"市原市山田橋2丁目","lat":35.506,"lng":140.176,"voting_area":null,"accessibility":null,"type":"poster"},
    {"no":8,"name":"青葉台交差点","address":"市原市青葉台4丁目","lat":35.4615,"lng":140.0575,"voting_area":null,"accessibility":null,"type":"poster"},
    {"no":9,"name":"鶴舞郵便局前","address":"市原市鶴舞580","lat":35.3345,"lng":140.154,"voting_area":null,"accessibility":null,"type":"poster"},
    {"no":10,"name":"南総公民館前","address":"市原市鶴舞250","lat":35.3295,"lng":140.1495,"voting_area":null,"accessibility":null,"type":"poster"},
    {"no":11,"name":"ちはら台駅前広場","address":"市原市ちはら台西1丁目","lat":35.515,"lng":140.165,"voting_area":null,"accessibility":null,"type":"poster"},
    {"no":12,"name":"白金町バス停前","address":"市原市白金町3丁目","lat":35.5255,"lng":140.121,"voting_area":null,"accessibility":null,"type":"poster"},
    {"no":13,"name":"五井西中学校前","address":"市原市五井西6丁目","lat":35.518,"lng":140.092,"voting_area":null,"accessibility":null,"type":"poster"},
    {"no":14,"name":"姉崎保健福祉センター前","address":"市原市姉崎3583-1","lat":35.474,"lng":140.07,"voting_area":null,"accessibility":null,"type":"poster"},
    {"no":15,"name":"千種体育館前","address":"市原市千種2丁目","lat":35.4825,"lng":140.081,"voting_area":null,"accessibility":null,"type":"poster"}
  ]
}
